6*74
$GPGSV,2,2,08,22,52,318,,09,46,035,43,27,29,040,41,12,41,113,44*7C
$GPGLL,3018.45974,N,12005.27950,E,044559.00,A,A*6E
$GPZDA,044559.00,24,04,2011,00,00*6F
$GPRMC,044600.00,A,3018.45960,N,12005.27987,E,0.036,244.81,240411,,,A*65
$GPVTG,244.81,T,,M,0.036,N,0.067,K,A*32
$GPGGA,044600.00,3018.45960,N,12005.27987,E,1,05,2.67,-52.0,M,7.0,M,,*70
$GPGSA,A,3,18,25,09,27,12,,,,,,,,4.18,2.67,3.22*0E
$GPGSV,2,1,08,15,23,075,38,42,48,144,43,18,87,356,37,25,29,162,46*7B
$GPGSV,2,2,08,22,52,318,,09,46,035,43,27,29,040,41,12,41,113,42*7A
$GPGLL,3018.45960,N,12005.27987,E,044600.00,A,A*6E
$GPZDA,044600.00,24,04,2011,00,00*60
$GPRMC,044601.00,A,3018.45945,N,12005.28027,E,0.036,245.04,240411,,,A*63
$GPVTG,245.04,T,,M,0.036,N,0.067,K,A*3E
$GPGGA,044601.00,3018.45945,N,12005.28027,E,1,05,2.67,-51.6,M,7.0,M,,*7F
$GPGSA,A,3,18,25,09,27,12,,,,,,,,4.18,2.67,3.21*0D
$GPGSV,2,1,08,15,23,075,38,42,48,144,43,18,87,356,36,25,29,162,46*7A
$GPGSV,2,2,08,22,52,318,29,09,46,035,44,27,29,040,42,12,41,113,41*76
$GPGLL,3018.45945,N,12005.28027,E,044601.00,A,A*64
$GPZDA,044601.00,24,04,2011,00,00*61
$GPRMC,044602.00,A,3018.45927,N,12005.28073,E,0.070,245.82,240411,,,A*69
$GPVTG,245.82,T,,M,0.070,N,0.130,K,A*31
$GPGGA,044602.00,3018.45927,N,12005.28073,E,1,05,2.67,-51.0,M,7.0,M,,*7F
$GPGSA,A,3,18,25,09,27,12,,,,,,,,4.18,2.67,3.21*0D
$GPGSV,2,1,08,15,23,075,38,42,48,144,44,18,87,356,37,25,29,162,47*7D
$GPGSV,2,2,08,22,52,318,25,09,46,035,44,27,29,040,42,12,41,113,38*74
$GPGLL,3018.45927,N,12005.28073,E,044602.00,A,A*62
$GPZDA,044602.00,24,04,2011,00,00*62
$GPRMC,044603.00,A,3018.45908,N,12005.28115,E,0.087,246.72,240411,,,A*60
$GPVTG,246.72,T,,M,0.087,N,0.161,K,A*31
$GPGGA,044603.00,3018.45908,N,12005.28115,E,1,05,2.67,-50.5,M,7.0,M,,*76
$GPGSA,A,3,18,25,09,27,12,,,,,,,,4.18,2.67,3.21*0D
$GPGSV,2,1,08,15,23,075,38,42,48,144,43,18,87,356,36,25,29,162,47*7B
$GPGSV,2,2,08,22,52,318,26,09,46,035,44,27,29,040,42,12,41,113,35*7A
$GPGLL,3018.45908,N,12005.28115,E,044603.00,A,A*6F
$GPZDA,044603.00,24,04,2011,00,00*63
$GPRMC,044604.00,A,3018.45903,N,12005.28106,E,0.033,246.19,240411,,,A*6C
$GPVTG,246.19,T,,M,0.033,N,0.061,K,A*32
$GPGGA,044604.00,3018.45903,N,12005.28106,E,1,05,2.67,-50.6,M,7.0,M,,*7B
$GPGSA,A,3,18,25,09,27,12,,,,,,,,4.18,2.67,3.22*0E
$GPGSV,2,1,08,15,23,075,38,42,48,144,43,18,87,356,37,25,29,161,47*79
$GPGSV,2,2,08,22,52,318,25,09,46,035,43,27,29,040,43,12,41,113,30*7A
$GPGLL,3018.45903,N,12005.28106,E,044604.00,A,A*61
$GPZDA,044604.00,24,04,2011,00,00*64
$GPRMC,044605.00,A,3018.45899,N,12005.28090,E,0.048,247.11,240411,,,A*64
$GPVTG,247.11,T,,M,0.048,N,0.089,K,A*31
$GPGGA,044605.00,3018.45899,N,12005.28090,E,1,05,2.67,-50.7,M,7.0,M,,*77
$GPGSA,A,3,18,25,09,27,12,,,,,,,,4.18,2.67,3.21*0D
$GPGSV,2,1,08,15,23,075,39,42,48,144,43,18,87,356,36,25,29,161,47*79
$GPGSV,2,2,08,22,52,318,21,09,46,035,43,27,29,040,43,12,41,113,34*7A
$GPGLL,3018.45899,N,12005.28090,E,044605.00,A,A*6C
$GPZDA,044605.00,24,04,2011,00,00*65
$GPRMC,044606.00,A,3018.45885,N,12005.28082,E,0.033,247.13,240411,,,A*67
$GPVTG,247.13,T,,M,0.033,N,0.061,K,A*39
$GPGGA,044606.00,3018.45885,N,12005.28082,E,1,05,4.50,-50.6,M,7.0,M,,*79
$GPGSA,A,3,42,18,25,09,27,,,,,,,,6.06,4.50,4.06*05
$GPGSV,2,1,08,15,23,075,39,42,48,144,43,18,87,356,37,25,29,161,47*78
$GPGSV,2,2,08,22,52,318,23,09,46,035,42,27,29,040,43,12,41,113,35*78
$GPGLL,3018.45885,N,12005.28082,E,044606.00,A,A*61
$GPZDA,044606.00,24,04,2011,00,00*66
$GPRMC,044607.00,A,3018.45878,N,12005.28049,E,0.146,242.99,240411,,,A*67
$GPVTG,242.99,T,,M,0.146,N,0.270,K,A*3F
$GPGGA,044607.00,3018.45878,N,12005.28049,E,1,06,2.56,-50.6,M,7.0,M,,*7E
$GPGSA,A,3,42,18,25,09,27,12,,,,,,,3.97,2.56,3.03*09
$GPGSV,2,1,08,15,23,075,39,42,48,144,44,18,87,356,37,25,29,161,47*7F
$GPGSV,2,2,08,22,52,318,23,09,46,035,42,27,29,040,43,12,41,113,35*78
$GPGLL,3018.45878,N,12005.28049,E,044607.00,A,A*65
$GPZDA,044607.00,24,04,2011,00,00*67
$GPRMC,044608.00,A,3018.45870,N,12005.28022,E,0.121,239.14,240411,,,A*65
$GPVTG,239.14,T,,M,0.121,N,0.223,K,A*31
$GPGGA,044608.00,3018.45870,N,12005.28022,E,1,06,2.56,-50.4,M,7.0,M,,*76
$GPGSA,A,3,42,18,25,09,27,12,,,,,,,3.97,2.56,3.03*09
$GPGSV,2,1,08,15,23,075,39,42,48,144,43,18,87,356,37,25,29,161,47*78
$GPGSV,2,2,08,22,52,318,23,09,46,035,41,27,29,040,43,12,41,113,35*7B
$GPGLL,3018.45870,N,12005.28022,E,044608.00,A,A*6F
$GPZDA,044608.00,24,04,2011,00,00*68
$GPRMC,044609.00,A,3018.45860,N,12005.28009,E,0.185,235.18,240411,,,A*62
$GPVTG,235.18,T,,M,0.185,N,0.342,K,A*39
$GPGGA,044609.00,3018.45860,N,12005.28009,E,1,06,2.56,-50.1,M,7.0,M,,*7A
$GPGSA,A,3,42,18,25,09,27,12,,,,,,,3.97,2.56,3.03*09
$GPGSV,2,1,08,15,23,075,38,42,48,144,43,18,87,356,37,25,29,161,47*79
$GPGSV,2,2,08,22,52,318,22,09,46,035,41,27,29,040,43,12,41,113,33*7C
$GPGLL,3018.45860,N,12005.28009,E,044609.00,A,A*66
$GPZDA,044609.00,24,04,2011,00,00*69
$GPRMC,044610.00,A,3018.45850,N,12005.28007,E,0.184,231.39,240411,,,A*61
$GPVTG,231.39,T,,M,0.184,N,0.341,K,A*3C
$GPGGA,044610.00,3018.45850,N,12005.28007,E,1,06,2.56,-49.6,M,7.0,M,,*70
$GPGSA,A,3,42,18,25,09,27,12,,,,,,,3.97,2.56,3.03*09
$GPGSV,2,1,08,15,23,075,38,42,48,144,43,18,87,356,37,25,29,161,47*79
$GPGSV,2,2,08,22,52,318,22,09,46,035,40,27,29,040,43,12,41,113,31*7F
$GPGLL,3018.45850,N,12005.28007,E,044610.00,A,A*63
$GPZDA,044610.00,24,04,2011,00,00*61
$GPRMC,044611.00,A,3018.45842,N,12005.28013,E,0.222,223.85,240411,,,A*6D
$GPVTG,223.85,T,,M,0.222,N,0.411,K,A*35
$GPGGA,044611.00,3018.45842,N,12005.28013,E,1,06,4.51,-49.1,M,7.0,M,,*71
$GPGSA,A,3,42,18,25,09,27,12,,,,,,,6.08,4.51,4.07*08
$GPGSV,2,1,08,15,23,075,37,42,48,144,43,18,87,356,38,25,29,161,47*79
$GPGSV,2,2,08,22,52,318,,09,46,035,38,27,29,040,43,12,41,113,26*76
$GPGLL,3018.45842,N,12005.28013,E,044611.00,A,A*64
$GPZDA,044611.00,24,04,2011,00,00*60
$GPRMC,044612.00,A,3018.45841,N,12005.28028,E,0.350,216.63,240411,,,A*6F
$GPVTG,216.63,T,,M,0.350,N,0.648,K,A*31
$GPGGA,044612.00,3018.45841,N,12005.28028,E,1,06,4.51,-48.6,M,7.0,M,,*7F
$GPGSA,A,3,42,18,25,09,27,12,,,,,,,6.08,4.51,4.08*07
$GPGSV,2,1,08,15,23,075,34,42,48,144,43,18,87,356,38,25,29,161,47*7A
$GPGSV,2,2,08,22,52,318,,09,46,035,36,27,29,040,42,12,41,113,26*79
$GPGLL,3018.45841,N,12005.28028,E,044612.00,A,A*6C
$GPZDA,044612.00,24,04,2011,00,00*63
$GPRMC,044613.00,A,3018.45837,N,12005.28057,E,0.765,209.50,240411,,,A*6B
$GPVTG,209.50,T,,M,0.765,N,1.417,K,A*34
$GPGGA,044613.00,3018.45837,N,12005.28057,E,1,07,3.22,-47.8,M,7.0,M,,*74
$GPGSA,A,3,15,42,18,25,09,27,12,,,,,,4.98,3.22,3.79*0A
$GPGSV,2,1,08,15,23,075,27,42,48,144,44,18,87,356,36,25,29,161,47*71
$GPGSV,2,2,08,22,52,318,,09,46,035,33,27,29,040,43,12,41,113,21*7A
$GPGLL,3018.45837,N,12005.28057,E,044613.00,A,A*64
$GPZDA,044613.00,24,04,2011,00,00*62
$GPRMC,044614.00,A,3018.45832,N,12005.28093,E,0.741,202.84,240411,,,A*65
$GPVTG,202.84,T,,M,0.741,N,1.373,K,A*35
$GPGGA,044614.00,3018.45832,N,12005.28093,E,1,07,2.35,-46.9,M,7.0,M,,*79
$GPGSA,A,3,15,42,18,25,09,27,12,,,,,,3.82,2.35,3.01*0E
$GPGSV,2,1,08,15,23,075,29,42,48,144,45,18,87,356,37,25,29,161,47*7F
$GPGSV,2,2,08,22,52,318,,09,46,035,32,27,29,040,43,12,41,113,30*7B
$GPGLL,3018.45832,N,12005.28093,E,044614.00,A,A*6E
$GPZDA,044614.00,24,04,2011,00,00*65
$GPRMC,044615.00,A,3018.45823,N,12005.28150,E,1.050,196.54,240411,,,A*6F
$GPVTG,196.54,T,,M,1.050,N,1.946,K,A*3C
$GPGGA,044615.00,3018.45823,N,12005.28150,E,1,07,2.56,-45.8,M,7.0,M,,*71
$GPGSA,A,3,15,42,18,25,09,27,12,,,,,,3.97,2.56,3.03*0D
$GPGSV,2,1,08,15,23,075,29,42,48,144,42,18,87,356,37,25,29,161,46*79
$GPGSV,2,2,08,22,52,318,,09,46,035,31,27,29,040,42,12,41,113,36*7F
$GPGLL,3018.45823,N,12005.28150,E,044615.00,A,A*61
$GPZDA,044615.00,24,04,2011,00,00*64
$GPRMC,044616.00,A,3018.45804,N,12005.28253,E,0.860,190.65,240411,,,A*67
$GPVTG,190.65,T,,M,0.860,N,1.594,K,A*31
$GPGGA,044616.00,3018.45804,N,12005.28253,E,1,07,2.35,-44.2,M,7.0,M,,*79
$GPGSA,A,3,15,42,18,25,09,27,12,,,,,,3.82,2.35,3.01*0E
$GPGSV,2,1,08,15,23,075,24,42,48,144,43,18,87,356,37,25,29,161,46*75
$GPGSV,2,2,08,22,52,318,,09,46,035,31,27,29,040,43,12,41,113,38*70
$GPGLL,3018.45804,N,12005.28253,E,044616.00,A,A*67
$GPZDA,044616.00,24,04,2011,00,00*67
$GPRMC,044617.00,A,3018.45808,N,12005.28272,E,0.632,185.09,240411,,,A*6E
$GPVTG,185.09,T,,M,0.632,N,1.170,K,A*38
$GPGGA,044617.00,3018.45808,N,12005.28272,E,1,06,3.25,-43.8,M,7.0,M,,*7B
$GPGSA,A,3,15,42,18,25,09,27,,,,,,,5.01,3.25,3.81*08
$GPGSV,2,1,08,15,23,075,26,42,48,144,43,18,87,356,38,25,29,161,47*79
$GPGSV,2,2,08,22,52,318,,09,46,035,34,27,29,040,42,12,41,113,40*7B
$GPGLL,3018.45808,N,12005.28272,E,044617.00,A,A*69
$GPZDA,044617.00,24,04,2011,00,00*66
$GPRMC,044618.00,A,3018.45792,N,12005.28364,E,0.411,180.03,240411,,,A*67
$GPVTG,180.03,T,,M,0.411,N,0.761,K,A*33
$GPGGA,044618.00,3018.45792,N,12005.28364,E,1,07,2.35,-42.2,M,7.0,M,,*74
$GPGSA,A,3,15,42,18,25,09,27,12,,,,,,3.82,2.35,3.01*0E
$GPGSV,2,1,08,15,23,075,35,42,48,144,43,18,87,356,38,25,29,161,47*7B
$GPGSV,2,2,08,22,52,318,,09,46,035,37,27,29,040,41,12,41,113,42*79
$GPGLL,3018.45792,N,12005.28364,E,044618.00,A,A*6C
$GPZDA,044618.00,24,04,2011,00,00*69
$GPRMC,044619.00,A,3018.45777,N,12005.28452,E,0.340,175.37,240411,,,A*61
$GPVTG,175.37,T,,M,0.340,N,0.631,K,A*39
$GPGGA,044619.00,3018.45777,N,12005.28452,E,1,07,2.35,-40.8,M,7.0,M,,*74
$GPGSA,A,3,15,42,18,25,09,27,12,,,,,,3.82,2.35,3.01*0E
$GPGSV,2,1,08,15,23,075,37,42,48,144,44,18,87,356,38,25,29,161,47*7E
$GPGSV,2,2,08,22,52,318,,09,46,035,38,27,29,040,40,12,41,113,44*71
$GPGLL,3018.45777,N,12005.28452,E,044619.00,A,A*64
$GPZDA,044619.00,24,04,2011,00,00*68
$GPRMC,044620.00,A,3018.45756,N,12005.28567,E,0.257,171.08,240411,,,A*60
$GPVTG,171.08,T,,M,0.257,N,0.475,K,A*34
$GPGGA,044620.00,3018.45756,N,12005.28567,E,1,07,2.35,-39.2,M,7.0,M,,*7E
$GPGSA,A,3,15,42,18,25,09,27,12,,,,,,3.82,2.35,3.01*0E
$GPGSV,2,1,08,15,23,075,40,42,48,144,42,18,87,356,38,25,29,161,47*78
$GPGSV,2,2,08,22,52,318,,09,46,035,39,27,29,040,40,12,41,113,45*71
$GPGLL,3018.45756,N,12005.28567,E,044620.00,A,A*6A
$GPZDA,044620.00,24,04,2011,00,00*62
$GPRMC,044621.00,A,3018.45745,N,12005.28665,E,0.149,169.30,240411,,,A*6C
$GPVTG,169.30,T,,M,0.149,N,0.276,K,A*3F
$GPGGA,044621.00,3018.45745,N,12005.28665,E,1,07,2.35,-37.9,M,7.0,M,,*79
$GPGSA,A,3,15,42,18,25,09,27,12,,,,,,3.82,2.35,3.01*0E
$GPGSV,2,1,08,15,23,075,41,42,48,144,43,18,87,356,38,25,29,161,47*78
$GPGSV,2,2,08,22,52,318,,09,46,035,40,27,29,040,39,12,41,113,46*72
$GPGLL,3018.45745,N,12005.28665,E,044621.00,A,A*68
$GPZDA,044621.00,24,04,2011,00,00*63
$GPRMC,044622.00,A,3018.45737,N,12005.28740,E,0.163,167.53,240411,,,A*6F
$GPVTG,167.53,T,,M,0.163,N,0.302,K,A*3E
$GPGGA,044622.00,3018.45737,N,12005.28740,E,1,07,2.35,-37.0,M,7.0,M,,*70
$GPGSA,A,3,15,42,18,25,09,27,12,,,,,,3.82,2.35,3.01*0E
$GPGSV,2,1,08,15,23,075,43,42,48,144,43,18,87,356,38,25,29,161,47*7A
$GPGSV,2,2,08,22,52,318,,09,46,035,40,27,29,040,39,12,41,113,46*72
$GPGLL,3018.45737,N,12005.28740,E,044622.00,A,A*68
$GPZDA,044622.00,24,04,2011,00,00*60
$GPRMC,044623.00,A,3018.45735,N,12005.28786,E,0.080,165.92,240411,,,A*65
$GPVTG,165.92,T,,M,0.080,N,0.148,K,A*31
$GPGGA,044623.00,3018.45735,N,12005.28786,E,1,07,2.35,-36.3,M,7.0,M,,*7B
$GPGSA,A,3,15,42,18,25,09,27,12,,,,,,3.82,2.35,3.01*0E
$GPGSV,2,1,08,15,23,075,43,42,48,144,43,18,87,356,38,25,29,161,47*7A
$GPGSV,2,2,08,22,52,318,,09,46,035,42,27,29,040,40,12,41,113,47*7F
$GPGLL,3018.45735,N,12005.28786,E,044623.00,A,A*61
$GPZDA,044623.00,24,04,2011,00,00*61
$GPRMC,044624.00,A,3018.45735,N,12005.28812,E,0.044,164.81,240411,,,A*6B
$GPVTG,164.81,T,,M,0.044,N,0.082,K,A*3D
$GPGGA,044624.00,3018.45735,N,12005.28812,E,1,07,2.35,-35.8,M,7.0,M,,*76
$GPGSA,A,3,15,42,18,25,09,27,12,,,,,,3.82,2.35,3.01*0E
$GPGSV,2,1,08,15,23,075,44,42,48,144,43,18,87,356,37,25,29,161,47*72
$GPGSV,2,2,08,22,52,318,,09,46,035,42,27,29,040,40,12,41,113,47*7F
$GPGLL,3018.45735,N,12005.28812,E,044624.00,A,A*64
$GPZDA,044624.00,24,04,2011,00,00*66
$GPRMC,044625.00,A,3018.45735,N,12005.28830,E,0.061,163.80,240411,,,A*6B
$GPVTG,163.80,T,,M,0.061,N,0.114,K,A*32
$GPGGA,044625.00,3018.45735,N,12005.28830,E,1,07,2.35,-35.4,M,7.0,M,,*7B
$GPGSA,A,3,15,42,18,25,09,27,12,,,,,,3.82,2.35,3.01*0E
$GPGSV,2,1,08,15,23,075,46,42,48,144,43,18,87,356,37,25,29,161,46*71
$GPGSV,2,2,08,22,52,318,,09,46,035,42,27,29,040,41,12,41,113,47*7E
$GPGLL,3018.45735,N,12005.28830,E,044625.00,A,A*65
$GPZDA,044625.00,24,04,2011,00,00*67
$GPRMC,044626.00,A,3018.45735,N,12005.28843,E,0.092,162.32,240411,,,A*68
$GPVTG,162.32,T,,M,0.092,N,0.170,K,A*34
$GPGGA,044626.00,3018.45735,N,12005.28843,E,1,07,2.35,-35.1,M,7.0,M,,*79
$GPGSA,A,3,15,42,18,25,09,27,12,,,,,,3.82,2.35,3.01*0E
$GPGSV,2,1,08,15,23,075,47,42,48,144,42,18,87,356,37,25,29,161,46*71
$GPGSV,2,2,08,22,52,318,,09,46,035,42,27,29,040,41,12,41,113,46*7F
$GPGLL,3018.45735,N,12005.28843,E,044626.00,A,A*62
$GPZDA,044626.00,24,04,2011,00,00*64
$GPRMC,044627.00,A,3018.45733,N,12005.28856,E,0.054,160.94,240411,,,A*6F
$GPVTG,160.94,T,,M,0.054,N,0.101,K,A*36
$GPGGA,044627.00,3018.45733,N,12005.28856,E,1,07,2.35,-34.7,M,7.0,M,,*7D
$GPGSA,A,3,15,42,18,25,09,27,12,,,,,,3.82,2.35,3.01*0E
$GPGSV,2,1,08,15,23,075,47,42,48,144,43,18,87,356,37,25,29,161,46*70
$GPGSV,2,2,08,22,52,318,,09,46,035,41,27,29,040,42,12,41,113,46*7F
$GPGLL,3018.45733,N,12005.28856,E,044627.00,A,A*61
$GPZDA,044627.00,24,04,2011,00,00*65
$GPRMC,044628.00,A,3018.45730,N,12005.28877,E,0.020,161.57,240411,,,A*6D
$GPVTG,161.57,T,,M,0.020,N,0.037,K,A*3F
$GPGGA,044628.00,3018.45730,N,12005.28877,E,1,07,2.35,-34.3,M,7.0,M,,*76
$GPGSA,A,3,15,42,18,25,09,27,12,,,,,,3.82,2.35,3.01*0E
$GPGSV,2,1,08,15,23,075,47,42,48,144,43,18,87,356,37,25,29,161,46*70
$GPGSV,2,2,08,22,52,318,,09,46,035,41,27,29,040,43,12,41,113,46*7E
$GPGLL,3018.45730,N,12005.28877,E,044628.00,A,A*6E
$GPZDA,044628.00,24,04,2011,00,00*6A
$GPRMC,044629.00,A,3018.45722,N,12005.28903,E,0.035,161.74,240411,,,A*68
$GPVTG,161.74,T,,M,0.035,N,0.064,K,A*3C
$GPGGA,044629.00,3018.45722,N,12005.28903,E,1,07,2.35,-33.9,M,7.0,M,,*7B
$GPGSA,A,3,15,42,18,25,09,27,12,,,,,,3.82,2.35,3.01*0E
$GPGSV,2,1,08,15,23,075,47,42,48,144,43,18,87,356,38,25,29,161,45*7C
$GPGSV,2,2,08,22,52,318,,09,46,035,40,27,29,040,43,12,41,113,46*7F
$GPGLL,3018.45722,N,12005.28903,E,044629.00,A,A*6E
$GPZDA,044629.00,24,04,2011,00,00*6B
$GPRMC,044630.00,A,3018.45712,N,12005.28932,E,0.025,163.38,240411,,,A*6A
$GPVTG,163.38,T,,M,0.025,N,0.046,K,A*37
$GPGGA,044630.00,3018.45712,N,12005.28932,E,1,07,2.35,-33.5,M,7.0,M,,*7E
$GPGSA,A,3,15,42,18,25,09,27,12,,,,,,3.82,2.35,3.01*0E
$GPGSV,2,1,08,15,23,075,47,42,48,144,42,18,87,356,38,25,29,161,45*7D
$GPGSV,2,2,08,22,52,318,,09,46,035,38,27,29,040,43,12,41,113,45*73
$GPGLL,3018.45712,N,12005.28932,E,044630.00,A,A*67
$GPZDA,044630.00,24,04,2011,00,00*63
$GPRMC,044631.00,A,3018.45701,N,12005.28962,E,0.050,162.55,240411,,,A*64
$GPVTG,162.55,T,,M,0.050,N,0.093,K,A*37
$GPGGA,044631.00,3018.45701,N,12005.28962,E,1,07,2.35,-33.0,M,7.0,M,,*7D
$GPGSA,A,3,15,42,18,25,09,27,12,,,,,,3.83,2.35,3.01*0F
$GPGSV,2,1,08,15,23,075,46,42,48,144,44,18,87,356,38,25,29,161,45*7A
$GPGSV,2,2,08,22,52,318,,09,46,035,37,27,29,040,44,12,41,113,44*7A
$GPGLL,3018.45701,N,12005.28962,E,044631.00,A,A*61
$GPZDA,044631.00,24,04,2011,00,00*62
$GPRMC,044632.00,A,3018.45695,N,12005.28988,E,0.039,161.11,240411,,,A*63
$GPVTG,161.11,T,,M,0.039,N,0.072,K,A*34
$GPGGA,044632.00,3018.45695,N,12005.28988,E,1,07,2.35,-32.6,M,7.0,M,,*71
$GPGSA,A,3,15,42,18,25,09,27,12,,,,,,3.83,2.35,3.02*0C
$GPGSV,2,1,08,15,23,075,46,42,48,144,44,18,87,356,38,25,29,161,45*7A
$GPGSV,2,2,08,22,52,318,,09,46,035,36,27,29,040,44,12,41,113,44*7B
$GPGLL,3018.45695,N,12005.28988,E,044632.00,A,A*6A
$GPZDA,044632.00,24,04,2011,00,00*61
$GPRMC,044633.00,A,3018.45693,N,12005.29005,E,0.070,160.14,240411,,,A*60
$GPVTG,160.14,T,,M,0.070,N,0.129,K,A*32
$GPGGA,044633.00,3018.45693,N,12005.29005,E,1,07,2.35,-32.3,M,7.0,M,,*7E
$GPGSA,A,3,15,42,18,25,09,27,12,,,,,,3.83,2.35,3.02*0C
$GPGSV,2,1,08,15,23,075,46,42,48,144,42,18,87,356,38,25,29,161,44*7D
$GPGSV,2,2,08,22,52,318,28,09,46,035,35,27,29,040,44,12,41,113,43*75
$GPGLL,3018.45693,N,12005.29005,E,044633.00,A,A*60
$GPZDA,044633.00,24,04,2011,00,00*60
$GPRMC,044634.00,A,3018.45701,N,12005.29000,E,0.049,159.22,240411,,,A*6D
$GPVTG,159.22,T,,M,0.049,N,0.090,K,A*34
$GPGGA,044634.00,3018.45701,N,12005.29000,E,1,07,2.36,-32.3,M,7.0,M,,*75
$GPGSA,A,3,15,42,18,25,09,27,12,,,,,,3.83,2.36,3.01*0C
$GPGSV,2,1,08,15,23,075,46,42,48,144,42,18,87,356,38,25,29,161,44*7D
$GPGSV,2,2,08,22,52,318,27,09,46,035,36,27,29,040,44,12,41,113,43*79
$GPGLL,3018.45701,N,12005.29000,E,044634.00,A,A*68
$GPZDA,044634.00,24,04,2011,00,00*67
$GPRMC,044635.00,A,3018.45702,N,12005.29022,E,0.168,157.92,240411,,,A*68
$GPVTG,157.92,T,,M,0.168,N,0.312,K,A*3A
$GPGGA,044635.00,3018.45702,N,12005.29022,E,1,07,3.23,-31.9,M,7.0,M,,*7B
$GPGSA,A,3,15,42,18,25,09,27,12,,,,,,5.00,3.23,3.81*0C
$GPGSV,2,1,08,15,23,075,46,42,48,144,42,18,87,356,38,25,29,161,44*7D
$GPGSV,2,2,08,22,52,318,27,09,46,035,35,27,29,040,44,12,41,113,43*7A
$GPGLL,3018.45702,N,12005.29022,E,044635.00,A,A*6A
$GPZDA,044635.00,24,04,2011,00,00*66
$GPRMC,044636.00,A,3018.45704,N,12005.29048,E,0.229,154.91,240411,,,A*67
$GPVTG,154.91,T,,M,0.229,N,0.425,K,A*3F
$GPGGA,044636.00,3018.45704,N,12005.29048,E,1,07,3.23,-31.3,M,7.0,M,,*78
$GPGSA,A,3,15,42,18,25,09,27,12,,,,,,5.00,3.23,3.81*0C
$GPGSV,2,1,08,15,23,075,45,42,48,144,43,18,87,356,38,25,29,161,44*7F
$GPGSV,2,2,08,22,52,318,24,09,46,035,35,27,29,040,44,12,41,113,45*7F
$GPGLL,3018.45704,N,12005.29048,E,044636.00,A,A*63
$GPZDA,044636.00,24,04,2011,00,00*65
$GPRMC,044637.00,A,3018.45729,N,12005.29018,E,0.206,152.40,240411,,,A*6B
$GPVTG,152.40,T,,M,0.206,N,0.381,K,A*31
$GPGGA,044637.00,3018.45729,N,12005.29018,E,1,07,2.36,-31.5,M,7.0,M,,*70
$GPGSA,A,3,15,42,18,25,09,27,12,,,,,,3.83,2.36,3.02*0F
$GPGSV,2,1,08,15,23,075,44,42,48,144,43,18,87,356,38,25,29,161,45*7F
$GPGSV,2,2,08,22,52,318,24,09,46,035,36,27,29,040,44,12,41,113,45*7C
$GPGLL,3018.45729,N,12005.29018,E,044637.00,A,A*68
$GPZDA,044637.00,24,04,2011,00,00*64
$GPRMC,044638.00,A,3018.45757,N,12005.28981,E,0.174,151.14,240411,,,A*61
$GPVTG,151.14,T,,M,0.174,N,0.323,K,A*3D
$GPGGA,044638.00,3018.45757,N,12005.28981,E,1,07,2.36,-31.7,M,7.0,M,,*7C
$GPGSA,A,3,15,42,18,25,09,27,12,,,,,,3.83,2.36,3.02*0F
$GPGSV,2,1,08,15,23,075,43,42,48,144,42,18,87,356,38,25,29,161,45*79
$GPGSV,2,2,08,22,52,318,24,09,46,035,36,27,29,040,44,12,41,113,45*7C
$GPGLL,3018.45757,N,12005.28981,E,044638.00,A,A*66
$GPZDA,044638.00,24,04,2011,00,00*6B
$GPRMC,044639.00,A,3018.45788,N,12005.28931,E,0.108,150.04,240411,,,A*62
$GPVTG,150.04,T,,M,0.108,N,0.199,K,A*35
$GPGGA,044639.00,3018.45788,N,12005.28931,E,1,07,2.36,-32.2,M,7.0,M,,*72
$GPGSA,A,3,15,42,18,25,09,27,12,,,,,,3.83,2.36,3.02*0F
$GPGSV,2,1,08,15,23,075,42,42,48,144,43,18,87,356,38,25,29,161,45*79
$GPGSV,2,2,08,22,52,318,25,09,46,035,37,27,29,040,44,12,41,113,46*7F
$GPGLL,3018.45788,N,12005.28931,E,044639.00,A,A*6E
$GPZDA,044639.00,24,04,2011,00,00*6A
$GPRMC,044640.00,A,3018.45815,N,12005.28889,E,0.093,149.20,240411,,,A*68
$GPVTG,149.20,T,,M,0.093,N,0.173,K,A*3C
$GPGGA,044640.00,3018.45815,N,12005.28889,E,1,07,2.36,-32.6,M,7.0,M,,*71
$GPGSA,A,3,15,42,18,25,09,27,12,,,,,,3.83,2.36,3.02*0F
$GPGSV,2,1,08,15,23,075,42,42,48,144,43,18,87,356,38,25,29,161,46*7A
$GPGSV,2,2,08,22,52,318,27,09,46,035,37,27,29,040,44,12,41,113,45*7E
$GPGLL,3018.45815,N,12005.28889,E,044640.00,A,A*69
$GPZDA,044640.00,24,04,2011,00,00*64
$GPRMC,044641.00,A,3018.45846,N,12005.28825,E,0.088,148.16,240411,,,A*67
$GPVTG,148.16,T,,M,0.088,N,0.163,K,A*33
$GPGGA,044641.00,3018.45846,N,12005.28825,E,1,07,2.36,-33.4,M,7.0,M,,*73
$GPGSA,A,3,15,42,18,25,09,27,12,,,,,,3.83,2.36,3.02*0F
$GPGSV,2,1,08,15,23,075,41,42,48,144,43,18,87,356,38,25,29,161,46*79
$GPGSV,2,2,08,22,52,318,27,09,46,035,38,27,29,040,43,12,41,113,44*77
$GPGLL,3018.45846,N,12005.28825,E,044641.00,A,A*68
$GPZDA,044641.00,24,04,2011,00,00*65
$GPRMC,044642.00,A,3018.45872,N,12005.28761,E,0.029,148.45,240411,,,A*61
$GPVTG,148.45,T,,M,0.029,N,0.053,K,A*3C
$GPGGA,044642.00,3018.45872,N,12005.28761,E,1,07,2.36,-34.2,M,7.0,M,,*79
$GPGSA,A,3,15,42,18,25,09,27,12,,,,,,3.83,2.36,3.02*0F
$GPGSV,2,1,08,15,23,075,40,42,48,144,43,18,87,356,39,25,29,161,46*79
$GPGSV,2,2,08,22,52,318,22,09,46,035,39,27,29,040,43,12,41,112,42*74
$GPGLL,3018.45872,N,12005.28761,E,044642.00,A,A*63
$GPZDA,044642.00,24,04,2011,00,00*66
$GPRMC,044643.00,A,3018.45897,N,12005.28694,E,0.068,147.56,240411,,,A*68
$GPVTG,147.56,T,,M,0.068,N,0.127,K,A*36
$GPGGA,044643.00,3018.45897,N,12005.28694,E,1,07,2.36,-35.0,M,7.0,M,,*7B
$GPGSA,A,3,15,42,18,25,09,27,12,,,,,,3.83,2.36,3.02*0F
$GPGSV,2,1,08,15,23,075,40,42,48,144,43,18,87,356,38,25,29,161,47*79
$GPGSV,2,2,08,22,52,318,21,09,46,035,40,27,29,040,42,12,41,112,40*7A
$GPGLL,3018.45897,N,12005.28694,E,044643.00,A,A*62
$GPZDA,044643.00,24,04,2011,00,00*67
$GPRMC,044644.00,A,3018.45917,N,12005.28625,E,0.033,147.67,240411,,,A*60
$GPVTG,147.67,T,,M,0.033,N,0.061,K,A*39
$GPGGA,044644.00,3018.45917,N,12005.28625,E,1,07,2.36,-35.8,M,7.0,M,,*77
$GPGSA,A,3,15,42,18,25,09,27,12,,,,,,3.83,2.36,3.02*0F
$GPGSV,2,1,08,15,23,075,39,42,48,144,44,18,87,356,39,25,29,161,47*71
$GPGSV,2,2,08,22,52,318,22,09,46,035,41,27,29,040,42,12,41,112,36*79
$GPGLL,3018.45917,N,12005.28625,E,044644.00,A,A*66
$GPZDA,044644.00,24,04,2011,00,00*60
$GPRMC,044645.00,A,3018.45904,N,12005.28619,E,0.111,146.87,240411,,,A*62
$GPVTG,146.87,T,,M,0.111,N,0.206,K,A*34
$GPGGA,044645.00,3018.45904,N,12005.28619,E,1,07,3.24,-35.5,M,7.0,M,,*74
$GPGSA,A,3,15,42,18,25,09,27,12,,,,,,5.00,3.24,3.81*0B
$GPGSV,2,1,08,15,22,075,37,42,48,144,42,18,87,356,38,25,29,161,47*79
$GPGSV,2,2,08,22,52,318,23,09,46,035,42,27,29,040,43,12,41,112,30*7C
$GPGLL,3018.45904,N,12005.28619,E,044645.00,A,A*6A
$GPZDA,044645.00,24,04,2011,00,00*61
$GPRMC,044646.00,A,3018.45889,N,12005.28617,E,0.208,144.56,240411,,,A*6E
$GPVTG,144.56,T,,M,0.208,N,0.386,K,A*38
$GPGGA,044646.00,3018.45889,N,12005.28617,E,1,07,3.24,-35.4,M,7.0,M,,*7C
$GPGSA,A,3,15,42,18,25,09,27,12,,,,,,5.00,3.24,3.81*0B
$GPGSV,2,1,08,15,22,075,34,42,48,144,43,18,87,356,38,25,29,161,47*7B
$GPGSV,2,2,08,22,52,318,25,09,46,035,43,27,29,040,43,12,41,112,33*78
$GPGLL,3018.45889,N,12005.28617,E,044646.00,A,A*63
$GPZDA,044646.00,24,04,2011,00,00*62
$GPRMC,044647.00,A,3018.45876,N,12005.28612,E,0.347,142.22,240411,,,A*65
$GPVTG,142.22,T,,M,0.347,N,0.644,K,A*3C
$GPGGA,044647.00,3018.45876,N,12005.28612,E,1,07,2.36,-35.3,M,7.0,M,,*7D
$GPGSA,A,3,15,42,18,25,09,27,12,,,,,,3.83,2.36,3.02*0F
$GPGSV,2,1,08,15,22,075,34,42,48,144,43,18,87,356,38,25,29,161,48*74
$GPGSV,2,2,08,22,52,318,27,09,46,035,44,27,29,040,42,12,41,112,38*77
$GPGLL,3018.45876,N,12005.28612,E,044647.00,A,A*67
$GPZDA,044647.00,24,04,2011,00,00*63
$GPRMC,044648.00,A,3018.45857,N,12005.28619,E,0.493,139.97,240411,,,A*6E
$GPVTG,139.97,T,,M,0.493,N,0.913,K,A*3D
$GPGGA,044648.00,3018.45857,N,12005.28619,E,1,07,2.36,-35.3,M,7.0,M,,*7A
$GPGSA,A,3,15,42,18,25,09,27,12,,,,,,3.83,2.36,3.02*0F
$GPGSV,2,1,08,15,22,075,30,42,48,144,43,18,87,359,38,25,29,161,48*7F
$GPGSV,2,2,08,22,52,318,23,09,46,035,46,27,29,040,40,12,41,112,40*7C
$GPGLL,3018.45857,N,12005.28619,E,044648.00,A,A*60
$GPZDA,044648.00,24,04,2011,00,00*6C
$GPRMC,044649.00,A,3018.45845,N,12005.28606,E,0.240,137.90,240411,,,A*63
$GPVTG,137.90,T,,M,0.240,N,0.446,K,A*31
$GPGGA,044649.00,3018.45845,N,12005.28606,E,1,07,2.57,-35.6,M,7.0,M,,*74
$GPGSA,A,3,15,42,18,25,09,27,12,,,,,,3.98,2.57,3.04*04
$GPGSV,2,1,08,15,22,075,30,42,48,144,43,18,87,359,38,25,29,161,48*7F
$GPGSV,2,2,08,22,52,318,,09,46,035,47,27,29,040,40,12,41,112,43*7F
$GPGLL,3018.45845,N,12005.28606,E,044649.00,A,A*6C
$GPZDA,044649.00,24,04,2011,00,00*6D
